City_ID,City,Cloudiness,Country,Date,Humidity,Lat,Lng,Max Temp,Wind Speed
0,severodvinsk,0,RU,1524097800,80,64.56,39.82,30.2,4.47
1,nueva loja,92,EC,1524099488,100,0.08,-76.88,73.97,1.34
2,okhotsk,20,RU,1524099488,98,59.36,143.24,26.81,1.9
3,lavrentiya,8,RU,1524099488,100,65.58,-170.99,31.27,23.38
4,rikitea,80,PF,1524099488,99,-23.12,-134.97,80.5,14.43
5,hermanus,24,ZA,1524099488,100,-34.42,19.24,48.28,2.91
6,east london,8,ZA,1524099489,100,-33.02,27.91,70.19,29.3
7,puerto ayora,40,EC,1524096000,78,-0.74,-90.35,78.8,12.75
8,galle,1,US,1524095760,27,29.74,-97.91,80.6,11.41
9,ushuaia,20,AR,1524096000,75,-54.81,-68.31,42.8,10.29
10,lumeje,0,AO,1524099489,84,-11.56,20.78,63.67,2.8
11,college,1,US,1524095880,28,64.86,-147.8,42.8,10.29
12,san cristobal,40,EC,1524096000,71,-0.39,-78.55,57.2,16.11
13,cidreira,12,BR,1524099490,88,-30.17,-50.22,67.54,6.15
14,san quintin,75,PH,1524096000,66,17.54,120.52,84.2,2.24
15,turinsk,64,RU,1524099490,71,58.04,63.7,28.21,5.93
16,casper,1,US,1524095580,31,42.87,-106.31,48.2,9.17
17,marsh harbour,0,BS,1524099491,100,26.54,-77.06,73.57,9.06
18,bredasdorp,20,ZA,1524096000,87,-34.53,20.04,55.4,8.05
19,hobart,75,AU,1524096000,66,-42.88,147.33,53.6,9.17
20,geraldton,5,CA,1524096000,38,49.72,-86.95,39.2,11.41
21,mataura,88,NZ,1524099492,73,-46.19,168.86,56.24,21.47
22,codrington,20,AU,1524099492,86,-28.95,153.24,70.82,3.47
23,isangel,80,VU,1524099492,100,-19.55,169.27,78.25,18.34
24,namatanai,8,PG,1524099492,100,-3.66,152.44,82.97,6.93
25,kahului,40,US,1524095760,61,20.89,-156.47,82.4,18.34
26,avarua,40,CK,1524096000,65,-21.21,-159.78,80.6,14.99
27,nabire,24,ID,1524099419,85,-3.36,135.5,76.45,1.23
28,saint george,0,GR,1524095400,81,39.45,22.34,53.6,6.93
29,mahebourg,75,MU,1524096000,88,-20.41,57.7,78.8,9.17
30,umm kaddadah,0,SD,1524099494,14,13.6,26.69,66.59,9.17
31,busselton,92,AU,1524099494,100,-33.64,115.35,60.47,3.47
32,qaqortoq,76,GL,1524095400,80,60.72,-46.03,35.6,3.36
33,kumluca,32,TR,1524099494,61,36.37,30.29,42.16,2.13
34,vostok,0,RU,1524099494,78,46.45,135.83,55.3,2.8
35,moyale,76,ET,1524099495,95,3.52,39.05,65.65,1.34
36,georgetown,20,GY,1524096000,88,6.8,-58.16,77.0,4.7
37,xuddur,92,SO,1524099495,96,4.12,43.89,69.52,3.8
38,port alfred,0,ZA,1524099495,90,-33.59,26.89,65.02,18.68
39,havoysund,92,NO,1524099223,100,71.0,24.66,31.22,5.93
40,baglung,0,NP,1524099495,52,28.27,83.59,52.78,3.02
41,farsund,92,NO,1524099495,96,58.09,6.8,44.32,3.36
42,mungaoli,0,IN,1524099496,49,24.41,78.09,66.77,2.68
43,praia,0,BR,1524096000,77,-20.25,-43.81,64.4,2.24
44,new norfolk,75,AU,1524096000,66,-42.78,147.06,53.6,9.17
45,yellowknife,90,CA,1524096000,73,62.45,-114.38,24.8,16.11
46,wencheng,0,CN,1524099497,62,27.79,120.09,58.27,2.13
47,bubaque,0,GW,1524099497,100,11.28,-15.83,78.43,15.21
48,tasiilaq,92,GL,1524095400,80,65.61,-37.64,35.6,16.11
49,sorong,8,ID,1524099497,100,-0.86,131.25,82.66,2.46
50,norman wells,75,CA,1524096000,52,65.28,-126.83,17.6,19.46
51,bethel,1,US,1524095580,49,60.79,-161.76,48.2,16.11
52,constitucion,5,MX,1524095460,8,23.99,-104.67,82.4,3.36
53,faanui,80,PF,1524099498,100,-16.48,-151.75,79.82,10.29
54,huarmey,0,PE,1524099498,71,-10.07,-78.15,65.11,3.13
55,kapaa,75,US,1524095760,74,22.08,-159.32,80.6,14.99
56,katsuura,20,JP,1524096000,55,33.93,134.5,62.6,3.36
57,laguna,40,MX,1524094980,18,27.52,-110.01,87.8,11.41
58,avera,1,US,1524098100,38,33.19,-82.53,82.4,5.82
59,port elizabeth,90,US,1524099300,70,39.31,-74.98,53.6,3.36
60,hilo,90,US,1524095760,69,19.71,-155.08,77.0,8.05
61,ponta do sol,0,BR,1524099499,68,-20.63,-46.0,61.96,4.36
62,cabo san lucas,5,MX,1524095100,69,22.89,-109.91,80.6,4.7
63,mutsu,20,JP,1524096000,62,41.29,141.2,57.2,17.22
64,jamestown,0,AU,1524099394,42,-33.21,138.6,73.07,8.72
65,saryozek,80,KZ,1524099500,92,44.36,77.98,35.27,2.91
66,qaanaaq,0,GL,1524099500,78,77.48,-69.36,-4.29,2.68
67,hithadhoo,92,MV,1524099501,100,-0.6,73.08,79.37,14.65
68,kijang,0,KR,1524096000,55,35.24,129.21,60.8,3.36
69,alofi,75,NU,1524096000,65,-19.06,-169.92,82.4,18.34
70,abu dhabi,0,AE,1524096000,64,24.47,54.37,73.4,5.82
71,fresnillo,5,MX,1524094860,10,23.17,-102.87,80.6,9.17
72,barrow,0,AR,1524099502,88,-38.31,-60.23,58.45,7.94
73,butaritari,48,KI,1524099502,100,3.07,172.79,79.46,8.72
74,bangolo,32,CI,1524099502,81,7.01,-7.49,77.26,6.6
75,beringovskiy,92,RU,1524099502,99,63.05,179.32,32.26,14.09
76,punta arenas,40,CL,1524096000,86,-53.16,-70.91,41.0,13.87
77,bartica,20,GY,1524096000,88,6.41,-58.62,77.0,4.7
78,dombarovskiy,20,RU,1524099503,68,50.76,59.54,35.41,5.7
79,comodoro rivadavia,0,AR,1524096000,49,-45.87,-67.48,69.8,12.75
80,fairbanks,1,US,1524095880,28,64.84,-147.72,42.8,10.29
81,agadir,0,MA,1524097800,59,30.42,-9.58,62.6,1.57
82,vaini,44,IN,1524099504,91,15.34,74.49,71.68,2.57
83,teguise,0,ES,1524096000,68,29.06,-13.56,66.2,11.63
84,hargeysa,88,SO,1524099504,97,9.56,44.06,63.17,3.36
85,albany,90,US,1524095640,56,42.65,-73.75,42.8,5.82
86,cape town,20,ZA,1524096000,93,-33.93,18.42,53.6,9.17
87,hay river,40,CA,1524096000,68,60.82,-115.79,28.4,13.87
88,tevaitoa,24,PF,1524099505,100,-16.78,-151.5,79.64,9.17
89,spasskoye,92,RU,1524099505,98,55.86,45.7,48.55,3.13
90,sungaipenuh,24,ID,1524099505,95,-2.08,101.38,66.73,1.34
91,roebourne,0,AU,1524099506,39,-20.77,117.15,75.59,2.91
92,saurimo,8,AO,1524099506,93,-9.66,20.4,64.16,2.57
93,pangai,75,TO,1524096000,78,-19.8,-174.35,82.4,17.22
94,nanortalik,8,GL,1524099506,100,60.14,-45.24,31.94,4.7
95,coihaique,75,CL,1524096000,76,-45.58,-72.07,57.2,9.17
96,whitehaven,0,US,1524098100,60,35.03,-90.03,78.8,6.93
97,mar del plata,12,AR,1524099507,51,-46.43,-67.52,65.83,21.7
98,sarkand,24,KZ,1524099507,81,45.41,79.91,31.54,3.13
99,alto paraguai,68,BR,1524099507,91,-14.51,-56.48,73.93,2.91
100,porbandar,0,IN,1524099510,85,21.64,69.61,78.07,11.3
101,kununurra,68,AU,1524097800,52,-15.77,128.74,87.8,5.82
102,padang,44,ID,1524099441,100,-0.92,100.36,80.72,2.68
103,sola,20,NO,1524097200,100,58.89,5.65,48.2,3.36
104,bambous virieux,75,MU,1524096000,88,-20.34,57.76,78.8,9.17
105,kodiak,90,US,1524095580,56,39.95,-94.76,42.8,18.34
106,leninsk,90,RU,1524097800,100,48.69,45.2,50.0,8.95
107,mantua,0,IT,1524095700,87,45.16,10.79,59.0,2.24
108,thompson,75,CA,1524096000,27,55.74,-97.86,50.0,13.87
109,tuktoyaktuk,40,CA,1524096000,76,69.44,-133.03,-4.01,8.05
110,bluff,0,AU,1524099514,63,-23.58,149.07,77.39,9.73
111,buala,88,SB,1524099514,100,-8.15,159.59,79.91,3.91
112,severo-kurilsk,76,RU,1524099514,93,50.68,156.12,35.72,5.93
113,ivanovka,80,KG,1524099515,93,42.89,75.08,23.66,0.89
114,pisco,0,PE,1524096000,82,-13.71,-76.2,68.0,18.34
115,narsaq,44,GL,1524099000,86,60.91,-46.05,33.8,5.82
116,nago,0,IT,1524095400,72,45.88,10.89,59.0,4.7
117,atuona,76,PF,1524099515,100,-9.8,-139.03,81.26,15.32
118,carnarvon,0,ZA,1524099516,88,-30.97,22.13,46.07,9.28
119,red wing,1,US,1524098100,55,44.56,-92.53,39.2,3.36
120,naze,76,NG,1524099516,93,5.43,7.07,76.31,5.7
121,road town,1,VG,1524095580,83,18.42,-64.62,80.6,10.29
122,kidal,0,ML,1524099516,24,18.44,1.41,63.04,3.58
123,wajid,92,SO,1524099517,87,3.81,43.25,73.34,7.16
124,mogadishu,92,SO,1524099517,100,2.04,45.34,77.89,3.58
125,kavieng,88,PG,1524099517,100,-2.57,150.8,83.69,3.13
126,gerash,0,IR,1524095400,33,27.67,54.14,59.0,2.68
127,castro,100,CL,1524099518,96,-42.48,-73.76,56.11,8.39
128,winnemucca,90,US,1524095760,24,40.97,-117.74,55.4,4.7
129,matara,92,PE,1524099518,83,-13.74,-72.9,48.46,1.9
130,bauchi,64,NG,1524099518,91,10.31,9.85,71.05,2.35
131,rawson,0,AR,1524099518,32,-43.3,-65.11,60.92,10.51
132,khatanga,76,RU,1524099519,87,71.98,102.47,10.3,6.49
133,upernavik,20,GL,1524099519,100,72.79,-56.15,7.69,22.7
134,clyde river,1,CA,1524096000,83,70.47,-68.59,-7.61,2.24
135,saskylakh,12,RU,1524099519,84,71.97,114.09,2.87,4.59
136,lakes entrance,44,AU,1524099519,79,-37.88,147.99,65.24,4.59
137,ayr,76,GB,1524097200,67,55.46,-4.63,59.0,10.29
138,axim,36,GH,1524099520,97,4.87,-2.24,82.93,13.65
139,dingzhou,0,CN,1524096000,93,38.51,115.0,64.4,2.24
140,sibu,75,MY,1524096000,94,2.29,111.83,78.8,3.36
141,half moon bay,40,US,1524095760,41,37.46,-122.43,62.6,6.93
142,banjar,0,ID,1524099521,94,-7.37,108.54,74.51,2.91
143,ihosy,36,MG,1524099521,92,-22.4,46.13,56.06,2.46
144,san policarpo,80,PH,1524099521,98,12.18,125.51,81.58,6.82
145,boguchany,0,RU,1524099521,53,58.38,97.46,19.39,4.7
146,ostrovnoy,80,RU,1524099522,93,68.05,39.51,27.04,10.96
147,talnakh,56,RU,1524099522,83,69.49,88.39,5.21,19.69
148,longyearbyen,20,NO,1524095400,78,78.22,15.63,8.6,5.82
149,lalmohan,0,BD,1524099522,85,22.34,90.74,82.07,9.4
150,kyaikto,12,MM,1524099522,84,17.31,97.01,78.11,0.89
151,leningradskiy,12,RU,1524099523,100,69.38,178.42,16.78,12.75
152,jumla,0,NP,1524099523,81,29.28,82.18,29.87,2.46
153,marzuq,12,YE,1524099523,90,14.4,46.47,59.66,2.24
154,terney,0,RU,1524099523,85,45.05,136.61,46.66,1.57
155,sinnamary,76,GF,1524099523,97,5.38,-52.96,79.82,9.06
156,bondoukou,88,CI,1524099524,98,8.04,-2.8,72.58,6.71
157,dikson,68,RU,1524099266,90,73.51,80.55,3.86,24.49
158,toyooka,0,JP,1524096000,59,35.55,134.82,60.8,4.7
159,luderitz,0,NA,1524099524,94,-26.65,15.16,57.1,11.52
160,tabalosos,20,PE,1524096000,78,-6.39,-76.63,78.8,1.23
161,provideniya,40,RU,1524097800,64,64.42,-173.23,35.6,15.66
162,sibolga,92,ID,1524099525,100,1.74,98.78,68.53,1.57
163,saint-philippe,90,CA,1524098580,86,45.36,-73.48,42.8,13.87
164,azul,68,AR,1524099525,96,-36.78,-59.86,66.28,7.83
165,arman,0,RU,1524097800,46,59.7,150.17,30.2,8.95
166,aksay,48,RU,1524099525,77,47.27,39.86,55.39,7.83
167,mahibadhoo,92,MV,1524099526,100,3.78,72.97,80.54,10.4
168,jinchang,8,CN,1524099526,45,38.52,102.19,49.9,10.74
169,amapa,20,HN,1524096000,78,15.09,-87.97,82.4,16.11
170,cherskiy,0,RU,1524099526,75,68.75,161.3,25.87,2.57
171,kaitangata,64,NZ,1524099526,63,-46.28,169.85,57.37,26.51
172,pangnirtung,8,CA,1524099527,85,66.15,-65.72,10.79,3.91
173,pochutla,75,MX,1524095100,100,15.74,-96.47,86.0,6.93
174,siderno,75,IT,1524096120,93,38.28,16.3,60.8,1.12
175,khovu-aksy,64,RU,1524099527,83,51.13,93.72,25.37,2.8
176,alekseyevsk,20,RU,1524099527,58,57.84,108.35,26.14,5.7
177,tezu,44,IN,1524099528,86,27.93,96.16,60.07,1.12
178,alice springs,0,AU,1524096000,24,-23.7,133.88,80.6,8.05
179,alyangula,8,AU,1524099528,100,-13.85,136.42,84.41,15.55
180,ribeira grande,32,PT,1524099529,100,38.52,-28.7,59.98,15.77
181,arraial do cabo,0,BR,1524096000,100,-22.97,-42.02,66.2,3.36
182,minjur,40,IN,1524097800,89,13.28,80.26,84.2,6.93
183,menongue,0,AO,1524099529,73,-14.66,17.68,62.41,3.36
184,torbay,90,CA,1524096000,93,47.66,-52.73,39.2,25.28
185,paceco,40,IT,1524095700,82,37.98,12.56,60.8,2.24
186,minsk,75,BY,1524097500,81,53.9,27.56,50.0,17.9
187,sao filipe,0,CV,1524099530,98,14.9,-24.5,70.78,14.88
188,srivardhan,0,IN,1524099530,96,18.03,73.02,74.11,3.91
189,ust-kuyga,8,RU,1524099530,91,70.0,135.55,25.69,4.14
190,namibe,8,AO,1524099530,98,-15.19,12.15,78.47,5.37
191,bilibino,20,RU,1524099531,72,68.06,166.44,33.47,3.13
192,iguai,92,BR,1524099531,89,-14.76,-40.09,69.25,8.72
193,takoradi,44,GH,1524099531,99,4.89,-1.75,81.89,10.4
194,jefferson city,90,US,1524098100,52,38.58,-92.17,46.4,10.29
195,thunder bay,20,CA,1524096000,28,48.41,-89.26,44.6,10.29
196,tual,0,ID,1524099532,100,-5.67,132.75,84.01,2.35
197,meulaboh,80,ID,1524099532,100,4.14,96.13,77.66,1.9
198,siguiri,0,GN,1524099532,62,11.42,-9.17,76.31,2.91
199,aklavik,5,CA,1524096000,64,68.22,-135.01,-2.21,6.93
200,ahipara,80,NZ,1524099533,80,-35.17,173.16,64.03,6.6
201,coahuayana,8,MX,1524099533,23,18.62,-100.35,89.41,2.91
202,deputatskiy,56,RU,1524099536,94,69.3,139.9,23.08,3.91
203,tazmalt,40,DZ,1524096000,93,36.39,4.4,53.6,5.82
204,sitka,0,US,1524099537,19,37.17,-99.65,65.11,16.33
205,damietta,0,EG,1524096000,88,31.42,31.81,68.0,14.99
206,tromso,90,NO,1524097200,86,69.65,18.96,37.4,3.36
207,partizanskoye,92,UA,1524099537,90,44.83,34.08,49.36,2.8
208,strezhevoy,0,RU,1524097800,62,60.73,77.6,23.0,13.42
209,kitimat,75,CA,1524096000,57,54.02,-128.69,48.2,23.04
210,port lincoln,32,AU,1524099538,76,-34.72,135.86,68.62,5.59
211,yar-sale,44,RU,1524099404,77,66.83,70.83,17.59,18.34
212,cayenne,40,GF,1524097800,88,4.94,-52.33,78.8,2.24
213,nakhon phanom,0,LA,1524099538,88,17.4,104.79,70.64,3.47
214,svetlogorsk,0,RU,1524097800,92,53.14,59.15,26.6,6.71
215,victoria,75,BN,1524097800,88,5.28,115.24,84.2,2.24
216,udachnyy,88,RU,1524099539,84,66.42,112.4,24.7,6.04
217,hasaki,20,JP,1524096000,72,35.73,140.83,60.8,5.82
218,eldorado,5,MX,1524094800,29,24.32,-107.36,89.6,13.87
219,camacha,40,PT,1524097800,88,33.08,-16.33,62.6,13.87
220,sirvintos,75,LT,1524097200,81,55.05,24.95,48.2,9.17
221,barranca,64,PE,1524099439,100,-10.75,-77.76,64.66,9.4
222,atar,0,MR,1524099540,32,20.52,-13.05,64.39,4.03
223,vardo,40,US,1524098100,50,39.62,-77.74,59.0,0.78
224,tiznit,0,MA,1524099541,66,29.7,-9.73,64.79,3.8
225,tecoanapa,5,MX,1524094800,70,16.99,-99.26,84.2,5.82
226,sechura,0,PE,1524099541,71,-5.56,-80.82,72.89,10.63
227,bajitpur,75,BD,1524097800,78,24.22,90.95,73.4,8.05
228,kundiawa,48,PG,1524099541,93,-6.02,144.97,64.79,1.01
229,nikita,24,UA,1524099542,89,44.52,34.24,53.09,10.07
230,emilio carranza,0,MX,1524099542,60,19.97,-96.61,80.59,4.92
231,sisimiut,76,GL,1524099542,83,66.94,-53.67,16.87,1.34
232,petropavlovka,20,RU,1524099367,74,50.61,105.32,37.3,12.19
233,outlook,0,CA,1524099543,93,51.48,-107.04,42.7,2.57
234,manzanillo,48,CU,1524099495,100,20.34,-77.12,77.62,10.4
235,shido,20,JP,1524096000,55,34.32,134.17,62.6,3.36
236,santa cruz cabralia,40,BR,1524099600,83,-16.28,-39.02,73.4,5.82
237,cockburn town,0,TC,1524099499,94,21.46,-71.14,80.09,17.0
238,rosita,68,NI,1524099544,71,13.92,-84.4,77.53,3.02
239,sumenep,12,ID,1524099364,99,-7.02,113.87,84.41,7.61
240,grootfontein,0,NA,1524099544,87,-19.56,18.1,55.57,2.68
241,porto walter,48,BR,1524099544,81,-8.27,-72.74,78.56,3.02
242,tortoli,0,IT,1524095700,71,39.93,9.66,57.2,16.11
243,palmerston,90,CA,1524096000,89,43.83,-80.85,32.0,6.93
244,tiksi,0,RU,1524099545,87,71.64,128.87,19.84,3.91
245,australind,100,AU,1524099545,90,-33.28,115.72,57.32,2.13
246,mackenzie,75,CA,1524096000,48,55.34,-123.09,44.6,5.82
247,lompoc,1,US,1524098100,54,34.64,-120.46,59.0,14.99
248,wahlern,0,CH,1524097200,93,46.83,7.35,57.2,1.12
249,usinsk,48,RU,1524099546,89,66.0,57.56,21.82,12.19
250,fortuna,0,ES,1524097800,76,38.18,-1.13,53.6,3.36
251,srednekolymsk,0,RU,1524099546,73,67.46,153.71,27.62,3.13
252,luba,44,PH,1524099547,87,17.32,120.7,77.53,3.69
253,porto novo,40,BR,1524096000,72,-23.68,-45.44,66.2,5.82
254,cururupu,36,BR,1524099547,96,-1.82,-44.87,76.18,4.59
255,pevek,32,RU,1524099547,100,69.7,170.27,29.38,2.24
256,belford roxo,0,BR,1524096000,69,-22.77,-43.4,73.4,8.05
257,chokurdakh,24,RU,1524099547,98,70.62,147.9,18.67,4.92
258,andahuaylas,92,PE,1524099548,83,-13.66,-73.39,48.46,1.9
259,qazigund,88,IN,1524099548,83,33.59,75.17,36.44,1.79
260,pimentel,76,BR,1524099548,98,-3.7,-45.5,73.39,2.01
261,yarkovo,0,RU,1524097800,73,54.81,82.6,24.8,4.47
262,vysokogornyy,88,RU,1524099549,93,50.1,139.13,38.06,3.13
263,luang prabang,90,LA,1524096000,94,19.89,102.14,69.8,2.24
264,salalah,20,OM,1524095400,57,17.01,54.1,80.6,3.36
265,bathsheba,20,BB,1524096000,78,13.22,-59.52,78.8,20.8
266,kruisfontein,48,ZA,1524099549,90,-34.0,24.73,61.01,15.99
267,jalu,24,LY,1524099550,30,29.03,21.55,74.06,10.96
268,batagay,44,RU,1524099550,72,67.65,134.64,30.19,4.36
269,hastings,0,NZ,1524099550,83,-39.64,176.84,64.3,14.65
270,skibbereen,90,IE,1524096000,100,51.55,-9.27,50.0,10.29
271,gordeyevka,92,RU,1524099550,84,52.96,31.97,49.31,21.47
272,chuy,12,UY,1524099551,92,-33.69,-53.46,69.56,5.14
273,mamurras,20,AL,1524097200,93,41.58,19.7,59.0,2.24
274,sohag,0,EG,1524099515,38,26.55,31.7,68.39,3.02
275,diapaga,0,BF,1524099551,52,12.07,1.79,74.02,7.94
276,ancud,100,CL,1524099551,98,-41.87,-73.83,57.01,8.28
277,dingle,24,PH,1524099552,81,11.0,122.67,80.32,10.85
278,suntar,8,RU,1524099552,62,62.16,117.65,32.21,11.41
279,kysyl-syr,76,RU,1524099552,82,63.9,122.77,30.64,7.38
280,launceston,90,AU,1524096000,81,-41.43,147.14,50.0,8.05
281,vikhorevka,12,RU,1524097800,49,56.12,101.17,24.8,6.71
282,nalut,12,LY,1524099553,85,31.86,10.98,55.16,10.74
283,maniitsoq,88,GL,1524099553,82,65.42,-52.9,27.71,7.38
284,lata,44,IN,1524099553,60,30.78,78.62,47.11,2.68
285,lebu,75,ET,1524096000,82,8.96,38.73,60.8,6.93
286,san patricio,0,PY,1524099554,74,-26.98,-56.83,76.22,3.91
287,lagoa,0,PT,1524097800,59,37.14,-8.45,62.6,10.29
288,klaksvik,100,FO,1524097200,100,62.23,-6.59,46.4,27.51
289,todos santos,5,MX,1524095100,69,23.45,-110.23,80.6,4.7
290,palmares do sul,0,BR,1524096000,83,-30.26,-50.51,69.8,6.93
291,redlands,20,US,1524095880,17,34.06,-117.19,84.2,13.87
292,souillac,0,FR,1524097800,67,45.6,-0.6,62.6,5.82
293,linares,0,CL,1524099327,88,-35.85,-71.6,44.68,1.79
294,sistranda,90,NO,1524095400,100,63.73,8.83,44.6,3.36
295,taoudenni,0,ML,1524099556,23,22.68,-3.98,63.26,6.93
296,englewood,1,US,1524098640,12,39.65,-104.99,57.2,6.93
297,havre-saint-pierre,90,CA,1524097860,100,50.23,-63.6,33.8,6.93
298,caravelas,92,BR,1524099556,100,-17.73,-39.27,78.97,18.34
299,saldanha,0,PT,1524099557,83,41.42,-6.55,48.46,0.11
300,nouadhibou,75,MR,1524096000,88,20.93,-17.03,66.2,11.41
301,dali,88,CN,1524099557,100,25.6,100.24,49.72,1.9
302,ponta delgada,20,PT,1524097800,71,37.73,-25.67,50.0,5.82
303,gamba,0,CN,1524099560,56,28.28,88.52,3.37,2.01
304,muros,0,ES,1524097800,71,42.77,-9.06,53.6,3.36
305,bud,88,NO,1524097200,93,62.91,6.91,46.4,6.93
306,lichinga,0,MZ,1524099561,92,-13.3,35.25,56.24,2.13
307,sao jose da coroa grande,88,BR,1524099561,93,-8.9,-35.15,77.21,6.04
308,sussex,75,CA,1524096000,75,45.72,-65.51,41.0,8.05
309,nimes,0,FR,1524097800,71,43.83,4.35,57.2,3.36
310,sobolevo,92,RU,1524099562,97,54.43,31.9,47.06,22.59
311,rampura,0,IN,1524099562,60,24.47,75.44,72.44,6.93
312,kamien pomorski,0,PL,1524097800,87,53.97,14.77,50.0,1.12
313,port blair,0,IN,1524099563,100,11.67,92.75,84.01,3.36
314,murgab,75,TM,1524096000,76,37.5,61.97,50.0,2.68
315,shingu,20,JP,1524096000,72,33.72,135.99,64.4,3.36
316,bath,0,GB,1524097260,63,51.38,-2.36,60.8,5.82
317,owerri,76,NG,1524099564,93,5.49,7.03,76.31,5.7
318,caucaia,0,BR,1524099600,83,-3.73,-38.66,80.6,6.93
319,jian,0,IN,1524099564,86,25.65,87.89,71.86,13.09
320,saint-junien,0,FR,1524097800,51,45.89,0.9,62.6,6.93
321,zhenhai,0,CN,1524096000,67,29.95,121.71,62.6,6.71
322,kabare,68,RW,1524099564,100,-1.65,29.38,58.31,3.02
323,saint-leu,90,RE,1524097800,83,-21.15,55.28,77.0,23.04
324,shimoda,20,JP,1524096000,68,34.7,138.93,64.4,6.93
325,catuday,12,PH,1524099565,100,16.29,119.81,80.41,7.38
326,morehead,1,US,1524095580,46,38.18,-83.43,73.4,10.29
327,ixtapa,5,MX,1524095400,65,20.71,-105.21,80.6,13.87
328,anshun,92,CN,1524099566,89,26.25,105.93,57.73,12.41
329,severo-yeniseyskiy,44,RU,1524099566,67,60.37,93.04,13.67,3.91
330,vao,92,EE,1524099566,98,59.1,26.19,42.74,7.83
331,tibacuy,75,CO,1524096000,71,4.35,-74.45,57.2,8.05
332,kirksville,88,US,1524098100,52,40.19,-92.58,37.4,12.75
333,balkhash,12,KZ,1524099567,93,46.84,74.98,43.24,15.55
334,mount isa,0,AU,1524096000,42,-20.73,139.49,84.2,11.41
335,houma,0,CN,1524099567,70,35.63,111.36,62.59,3.36
336,nueve de julio,0,AR,1524099567,72,-31.67,-68.39,61.06,3.02
337,komsomolskiy,68,RU,1524099568,85,67.55,63.78,14.98,20.24
338,itoman,75,JP,1524096000,60,26.12,127.67,73.4,8.05
339,coquimbo,40,CL,1524096000,87,-29.95,-71.34,55.4,3.36
340,kiunga,48,PG,1524099568,86,-6.12,141.3,81.13,2.91
341,barra do garcas,88,BR,1524099568,72,-15.89,-52.26,76.0,3.91
342,biri,44,NO,1524099569,82,60.95,10.61,29.96,2.13
343,el tigre,76,VE,1524099569,56,8.89,-64.25,83.11,16.11
344,vilhena,48,BR,1524099569,92,-12.74,-60.15,72.04,2.68
345,necochea,44,AR,1524099309,96,-38.55,-58.74,58.81,6.93
346,zhucheng,0,CN,1524096000,49,30.85,114.8,69.8,11.18
347,kavaratti,44,IN,1524099570,100,10.57,72.64,84.82,7.27
348,sobolivka,20,UA,1524099570,63,50.89,28.72,51.79,18.12
349,dudinka,88,RU,1524099570,85,69.41,86.18,10.61,23.04
350,chifeng,0,CN,1524099570,69,42.27,118.96,56.24,3.58
351,chichimila,80,MX,1524099570,58,20.62,-88.22,84.01,8.72
352,kulhudhuffushi,68,MV,1524099571,100,6.62,73.07,84.59,10.07
353,port hedland,0,AU,1524097800,27,-20.31,118.58,89.6,8.05
354,esperance,20,TT,1524096000,88,10.24,-61.45,77.0,5.82
355,lander,1,US,1524098100,23,42.83,-108.73,53.6,3.36
356,gladstone,44,AU,1524099571,89,-23.84,151.26,74.51,11.74
357,gat,0,SN,1524096000,77,14.69,-16.54,68.0,6.93
358,jinka,92,ET,1524099572,80,5.79,36.57,65.92,1.9
359,nome,90,US,1524096900,69,30.04,-94.42,75.2,6.93
360,berlevag,92,NO,1524099572,100,70.86,29.09,29.2,10.4
361,elko,75,US,1524095760,20,40.83,-115.76,55.4,6.93
362,tautira,40,PF,1524097800,66,-17.73,-149.15,86.0,2.24
363,del rio,1,US,1524095700,11,29.36,-100.9,89.6,9.17
364,oktyabrskoye,76,RU,1524099573,78,56.73,85.44,16.06,2.46
365,valleyview,0,CA,1524099573,75,55.07,-117.28,42.11,7.94
366,batsfjord,80,NO,1524099574,100,70.63,29.72,32.66,17.9
367,fukue,20,JP,1524096000,82,35.03,136.69,57.2,8.05
368,nador,0,MA,1524097800,87,35.17,-2.93,60.8,3.36
369,airai,32,TL,1524099574,63,-8.93,125.41,77.8,1.12
370,margate,75,AU,1524096000,66,-43.03,147.26,53.6,9.17
371,cachira,75,CO,1524096000,58,7.74,-73.05,82.4,13.87
372,cartagena,0,ES,1524099575,81,37.63,-1.0,46.84,2.8
373,vila velha,0,BR,1524099600,83,-3.71,-38.6,80.6,6.93
374,buhe,0,CN,1524099575,57,30.29,112.23,68.71,13.42
375,egvekinot,48,RU,1524099575,90,66.32,-179.17,28.75,4.14
376,belyy yar,0,RU,1524097800,58,53.6,91.39,30.2,3.13
377,miles city,90,US,1524099180,40,46.41,-105.84,53.6,5.82
378,lebowakgomo,8,ZA,1524096000,82,-24.3,29.54,57.2,1.12
379,moscow,90,RU,1524097800,93,55.75,37.62,44.6,8.95
380,nara,20,JP,1524096000,63,34.68,135.8,64.4,2.24
381,tucuman,0,PE,1524099576,88,-17.17,-70.89,58.45,2.13
382,diffa,12,NE,1524099577,51,13.32,12.61,77.66,5.7
383,visnes,92,NO,1524097200,93,59.36,5.22,48.2,9.17
384,santo antonio,20,BR,1524099577,84,-4.7,-40.67,74.74,4.92
385,talcahuano,0,CL,1524096000,82,-36.72,-73.12,57.2,8.05
386,hope,40,CA,1524096000,44,49.38,-121.43,59.0,3.36
387,seoul,0,KR,1524096000,35,37.57,126.98,59.0,6.93
388,acapulco,5,MX,1524094800,70,16.86,-99.88,84.2,5.82
389,hobyo,68,SO,1524099578,100,5.35,48.53,74.56,7.72
390,danjiangkou,0,CN,1524099578,89,32.54,111.51,63.31,2.57
391,pirai,0,BR,1524096000,69,-22.63,-43.9,73.4,8.05
392,tabou,48,CI,1524099579,100,4.42,-7.36,80.23,10.85
393,chapais,90,CA,1524096000,86,49.78,-74.86,30.2,10.29
394,kendrapara,0,IN,1524096000,88,20.5,86.42,80.6,8.05
395,kichera,20,RU,1524099580,74,55.93,110.1,21.82,3.24
396,henties bay,0,NA,1524099580,97,-22.12,14.28,64.52,7.38
397,sabang,8,PH,1524099580,90,13.72,123.58,80.68,5.37
398,hjelset,88,NO,1524097200,93,62.78,7.5,44.6,6.93
399,coos bay,1,US,1524096900,66,43.37,-124.22,55.4,13.87
400,manubul,64,PH,1524099580,100,5.47,120.8,79.96,1.34
401,big spring,1,US,1524096900,10,32.25,-101.48,75.2,9.17
402,sorland,92,NO,1524099581,97,67.67,12.69,41.89,10.4
403,vestmannaeyjar,92,IS,1524099581,95,63.44,-20.27,45.85,23.82
404,hami,36,CN,1524099581,60,42.84,93.51,53.14,2.68
405,oktyabrskiy,90,RU,1524097800,87,55.61,37.97,44.6,13.42
406,doha,0,QA,1524096000,56,25.29,51.53,71.6,4.7
407,lamu,56,ID,1524099582,100,0.57,122.3,75.59,2.57
408,troitsko-pechorsk,88,RU,1524099582,93,62.71,56.19,33.11,5.59
409,nuuk,56,GL,1524099000,92,64.17,-51.74,28.4,8.05
410,contamana,24,PE,1524099582,86,-7.35,-75.01,79.15,1.34
411,burns lake,80,CA,1524099582,53,54.23,-125.76,42.11,4.36
412,fare,24,PF,1524099583,100,-16.7,-151.02,79.64,9.17
413,bati,92,ET,1524099583,91,11.19,40.02,67.54,4.7
414,kinablangan,56,PH,1524099583,100,7.69,126.55,80.77,2.68
415,manati,20,AL,1524097200,93,41.76,19.67,59.0,2.24
416,terdal,32,IN,1524099583,88,16.49,75.05,69.29,3.13
417,port-gentil,80,GA,1524099584,100,-0.72,8.78,78.11,5.59
418,rantepao,92,ID,1524099584,100,-2.97,119.9,69.16,2.68
419,paragominas,88,BR,1524099584,90,-3.0,-47.35,76.36,3.91
420,corrales,76,CO,1524099584,81,5.83,-72.84,54.13,0.34
421,plouzane,0,FR,1524097800,93,48.38,-4.62,51.8,3.36
422,muyezerskiy,0,RU,1524099585,72,63.93,31.65,26.68,4.92
423,kloulklubed,75,PW,1524099000,79,7.04,134.26,84.2,9.17
424,toamasina,75,MG,1524096000,94,-18.17,49.38,73.4,4.7
425,beidao,8,CN,1524099585,66,34.57,105.89,58.99,14.99
426,altay,76,CN,1524099586,90,47.83,88.13,27.62,2.68
427,williams lake,75,CA,1524096000,39,52.13,-122.14,46.4,9.17
428,kommunar,48,RU,1524097800,100,59.62,30.39,35.6,8.95
429,faya,5,SA,1524096000,72,18.39,42.45,62.6,3.36
430,kallithiron,36,GR,1524099586,86,39.28,21.91,44.05,1.9
431,mountmellick,75,IE,1524096000,87,53.12,-7.33,53.6,11.41
432,gazanjyk,0,TM,1524099587,76,39.24,55.52,37.97,2.68
433,luwuk,48,ID,1524099587,98,-0.95,122.79,79.69,2.35
434,banda aceh,88,ID,1524099587,96,5.56,95.32,76.09,2.91
435,north bend,1,US,1524096900,66,43.41,-124.22,55.4,13.87
436,russkaya polyana,32,RU,1524099587,74,53.78,73.88,25.15,6.6
437,kushiro,20,JP,1524096000,76,43.11,144.15,50.0,4.7
438,abha,5,SA,1524096000,72,18.22,42.5,62.6,3.36
439,gorontalo,36,ID,1524099588,95,0.54,123.06,76.09,2.01
440,ugoofaaru,92,MV,1524099588,100,5.67,73.0,81.89,7.83
441,monte alto,0,BR,1524099589,65,-21.27,-48.5,68.17,4.25
442,itarema,64,BR,1524099589,93,-2.92,-39.92,77.71,8.95
443,trelew,0,AR,1524099589,32,-43.25,-65.31,60.92,10.51
444,tongliao,0,CN,1524099589,90,43.61,122.27,55.61,8.5
445,balsas,92,BR,1524099589,48,-7.53,-46.04,85.36,9.4
446,tanda,0,IN,1524099590,51,31.67,75.63,65.56,4.92
447,ouesso,56,CG,1524099590,93,1.61,16.05,76.45,3.36
448,bonavista,88,CA,1524099356,80,48.65,-53.11,40.04,16.44
449,roald,92,NO,1524097200,93,62.58,6.12,46.4,6.93
450,chagoda,88,RU,1524099590,99,59.16,35.33,38.11,6.6
451,muhororo,92,RW,1524099591,94,-2.51,29.77,61.06,2.35
452,pangody,88,RU,1524099591,87,65.85,74.49,22.99,15.43
453,san isidro,64,PH,1524099592,100,16.74,121.63,74.51,4.03
454,san-pedro,8,CI,1524099592,90,4.75,-6.64,78.7,8.5
455,guerrero negro,56,MX,1524099593,54,27.97,-114.04,68.17,10.4
456,brae,64,GB,1524097200,76,60.4,-1.35,55.4,29.97
457,harper,1,US,1524096900,18,30.3,-99.24,77.0,8.05
458,kasongo-lunda,8,CD,1524099593,97,-6.48,16.82,69.47,2.35
459,asyut,0,EG,1524096000,43,27.18,31.19,73.4,9.17
460,bull savanna,8,JM,1524099593,65,17.89,-77.59,77.53,4.59
461,rayevskiy,68,RU,1524099594,77,54.07,54.94,31.54,10.18
462,batagay-alyta,68,RU,1524099594,87,67.8,130.41,24.34,4.03
463,kailua,90,US,1524095820,74,21.39,-157.74,82.4,13.87
464,leshukonskoye,68,RU,1524099594,92,64.9,45.76,30.1,5.7
465,bandarbeyla,68,SO,1524099594,100,9.49,50.81,82.97,5.93
466,zhanaozen,0,KZ,1524099595,66,43.35,52.85,35.99,5.59
467,xuanwu,0,CN,1524096000,59,32.07,118.81,66.2,6.71
468,sterling,1,US,1524098220,50,39.0,-77.4,60.8,4.7
469,richards bay,0,ZA,1524099595,77,-28.77,32.06,70.42,7.61
470,koltubanovskiy,92,RU,1524099595,97,52.94,52.03,52.19,9.73
471,vila franca do campo,20,PT,1524097800,71,37.72,-25.43,50.0,5.82
472,abeche,0,TD,1524099596,12,13.83,20.83,72.26,12.64
473,tuy hoa,20,VN,1524099596,99,13.08,109.3,76.04,1.9
474,tomatlan,0,MX,1524099546,57,19.93,-105.25,84.01,3.02
475,ewa beach,75,US,1524095820,58,21.32,-158.01,82.4,10.29
476,raudeberg,92,NO,1524097200,76,61.99,5.14,51.8,16.11
477,broome,0,GB,1524097200,81,52.47,1.45,57.2,4.7
478,ust-barguzin,92,RU,1524099597,95,53.41,109.03,29.47,3.02
479,ialibu,20,PG,1524099597,91,-6.28,143.99,64.34,1.34
480,hamilton,90,CA,1524096000,74,43.26,-79.87,39.2,6.93
481,hambantota,100,LK,1524099597,100,6.12,81.12,78.52,6.38
482,kaspiysk,40,RU,1524097800,93,42.88,47.64,41.0,6.71
483,chenghai,0,CN,1524096000,72,23.46,116.77,68.0,4.47
484,quatre cocos,75,MU,1524096000,88,-20.21,57.76,78.8,9.17
485,salas,0,ES,1524097800,66,43.41,-6.26,55.4,4.7
486,burnie,76,AU,1524099598,100,-41.05,145.91,57.77,7.61
487,illapel,0,CL,1524099599,96,-31.63,-71.17,53.41,3.13
488,buchanan,75,LR,1524097800,94,5.88,-10.05,77.0,5.14
489,moose factory,75,CA,1524096000,79,51.26,-80.61,28.4,23.04
490,atasu,8,KZ,1524099599,89,48.68,71.64,33.25,18.34
491,husavik,32,CA,1524099600,50,50.56,-96.99,46.34,3.91
492,nkan,68,GQ,1524099600,93,2.26,11.22,75.01,3.13
493,garchitorena,8,PH,1524099600,90,13.88,123.7,80.68,5.37
494,rocha,44,UY,1524099600,94,-34.48,-54.34,67.31,3.13
495,bukama,56,CD,1524099601,93,-9.2,25.85,70.82,3.13
496,tuatapere,44,NZ,1524099602,100,-46.13,167.69,54.26,25.05
497,maceio,0,BR,1524099600,83,-9.67,-35.74,75.2,3.36
498,lubaczow,0,PL,1524097800,75,50.16,23.12,46.4,2.24
499,nikolskoye,56,RU,1524097800,100,59.7,30.79,35.6,8.95
500,bhuj,8,IN,1524099604,73,23.25,69.67,76.49,10.51
501,khandbari,12,NP,1524099604,78,27.38,87.21,37.12,0.89
502,tessalit,0,ML,1524099605,27,20.2,1.01,60.29,3.69
503,bilma,64,NE,1524099619,18,18.69,12.92,73.52,3.13
504,portland,75,US,1524095760,73,45.52,-122.67,64.4,5.82
505,gidam,0,IN,1524099606,89,18.98,81.4,70.46,6.71
506,creel,68,MX,1524099606,10,27.75,-107.63,70.46,3.91
507,arlit,0,NE,1524099607,20,18.74,7.39,69.52,4.59
508,hervey bay,68,AU,1524099607,93,-25.3,152.85,76.49,8.61
509,olinda,75,EC,1524096000,58,-2.03,-79.75,86.0,12.75
510,palmas,76,BR,1524099622,80,-10.18,-48.33,76.67,2.35
511,yelizovo,68,RU,1524097800,60,53.19,158.38,42.8,8.95
512,duiwelskloof,12,ZA,1524099608,82,-23.69,30.14,59.26,2.68
513,makakilo city,75,US,1524095820,58,21.35,-158.09,82.4,10.29
514,mashpee,0,US,1524098100,75,41.65,-70.48,50.0,12.75
515,iqaluit,5,CA,1524096000,77,63.75,-68.52,5.0,23.04
516,vilyuysk,36,RU,1524099610,70,63.75,121.63,30.41,8.95
517,luau,0,CD,1524099610,96,-10.7,22.23,65.29,1.45
518,touros,24,BR,1524099610,85,-5.2,-35.46,79.82,10.63
519,gurdaha,75,IN,1524097800,83,22.73,88.76,82.4,9.17
520,atambua,12,ID,1524099611,99,-9.11,124.89,82.93,4.14
521,weihe,48,CN,1524099611,49,32.99,105.33,63.71,5.14
522,galdar,0,ES,1524097800,30,28.15,-15.65,69.8,20.8
523,saint-augustin,0,FR,1524097800,63,44.83,-0.61,62.6,8.05
524,bonoua,40,CI,1524097800,79,5.27,-3.6,84.2,6.93
525,caetes,88,BR,1524099627,87,-8.77,-36.62,70.19,8.39
526,huadian,12,CN,1524099613,63,42.97,126.75,57.14,9.17
527,honiara,75,SB,1524096000,70,-9.43,159.96,86.0,5.82
528,mecca,0,SA,1524096000,31,21.43,39.83,89.6,2.68
529,concord,1,US,1524098100,49,37.98,-122.03,62.6,6.93
530,ust-maya,0,RU,1524099614,69,60.42,134.54,39.01,4.92
531,selfoss,90,IS,1524096000,76,63.94,-21.0,48.2,20.8
532,rincon de la victoria,20,BO,1524096000,63,-21.52,-64.81,64.4,5.82
533,goderich,92,CA,1524099615,88,43.74,-81.71,32.21,7.61
534,west plains,1,US,1524099180,46,36.73,-91.85,62.6,13.87
535,benguela,68,AO,1524099615,100,-12.58,13.4,78.16,2.24
536,tyrma,56,RU,1524099615,54,50.04,132.17,47.51,3.47
537,kangalassy,0,RU,1524097800,35,62.35,129.97,41.0,2.24
538,golden,75,CA,1524096000,37,51.3,-116.96,50.0,3.36
539,kirakira,80,SB,1524099631,100,-10.46,161.92,80.41,15.66
540,mayor pablo lagerenza,44,PY,1524099632,85,-19.93,-60.77,74.65,6.6
541,mandurah,90,AU,1524096000,93,-32.55,115.7,59.0,5.82
